{
    "type":"FeatureCollection",
    "features":[
        {
        "type":"Feature",
        "geometry":{
            "type":"Point",
            "coordinates":[126.973,37.5677]
        },
        "properties":{
        "capacity":1,
        "city":"\uc11c\uc6b8\ud2b9\ubcc4\uc2dc"}
        },
        {
        "type":"Feature",
        "geometry":{
            "type":"Point",
            "coordinates":[129.07,35.2082]
            },
        "properties":{
        "capacity":1,
        "city":"\ubd80\uc0b0\uad11\uc5ed\uc2dc"}
        },
        {
        "type":"Feature",
        "geometry":{
            "type":"Point",
            "coordinates":[126.648,37.4107]
            },
        "properties":{
        "capacity":1,
        "city":"\uc778\ucc9c\uad11\uc5ed\uc2dc"}
        },
        {
        "type":"Feature",
        "geometry":
        {
            "type":"Point",
            "coordinates":[128.604,35.8711]
        },
        "properties":{
        "capacity":1,
        "city":"\ub300\uad6c\uad11\uc5ed\uc2dc"}
        },
        {
        "type":"Feature",
        "geometry":
        {
        "type":"Point",
        "coordinates":[126.852,35.173]},
        "properties":
        {"capacity":1,
        "city":"\uad11\uc8fc\uad11\uc5ed\uc2dc"}
        },
        {
        "type":"Feature",
        "geometry":
        {
        "type":"Point",
        "coordinates":[127.383,36.3553]},
        "properties":
        {
        "capacity":1,
        "city":"\ub300\uc804\uad11\uc5ed\uc2dc"}
        },
        {
        "type":"Feature",
        "geometry":{
        "type":"Point",
        "coordinates":[129.342,35.5476]
        },
        "properties":
        {"capacity":1,
        "city":"\uc6b8\uc0b0\uad11\uc5ed\uc2dc"}
        },
        {
        "type":"Feature",
        "geometry":
        {
        "type":"Point",
        "coordinates":[126.571,33.4514]
        },
        "properties":{
        "capacity":1,
        "city":"\uc81c\uc8fc\ud2b9\ubcc4\uc790\uce58\ub3c4"}
        },
        {
        "type":"Feature",
        "geometry":{
            "type":"Point",
            "coordinates":[126.448,36.7914]
        },
        "properties":{
        "capacity":1,
        "city":"\uc11c\uc0b0"}
        },
        {
        "type":"Feature",
        "geometry":{
            "type":"Point",
            "coordinates":[128.736,36.5712]
        },
        "properties":{
        "capacity":1,
        "city":"\uc548\ub3d9"}
        },
        {
        "type":"Feature",
        "geometry":{
            "type":"Point",
            "coordinates":[127.149,35.8282]
        },
        "properties":{
        "capacity":1,
        "city":"\uc804\uc8fc"}
        },
        {
        "type":"Feature",
        "geometry":{
            "type":"Point",
            "coordinates":[127.925,36.992]
        },
        "properties":{
        "capacity":1,
        "city":"\ucda9\uc8fc"}
        },
        {
        "type":"Feature",
        "geometry":{
            "type":"Point",
            "coordinates":[127.712,34.766]
        },
        "properties":{
        "capacity":1,
        "city":"\uc5ec\uc218"}
        },
        {
        "type":"Feature",
        "geometry":{
            "type":"Point",
            "coordinates":[129.371,36.415]
        },
        "properties":{
        "capacity":1,
        "city":"\uc601\ub355"}
        },
        {
        "type":"Feature",
        "geometry":{
            "type":"Point",
            "coordinates":[126.386,34.8196]},
        "properties":{
        "capacity":1,
        "city":"\ubaa9\ud3ec"}
        },
        {"type":"Feature",
        "geometry":{
            "type":"Point",
            "coordinates":[128.35,36.1241]
        },
        "properties":{
        "capacity":1,
        "city":"\uad6c\ubbf8"}
        },
        {
        "type":"Feature",
        "geometry":{
            "type":"Point",
            "coordinates":[126.61,36.3421]
        },
        "properties":{
        "capacity":1,
        "city":"\ubcf4\ub839"}
        },
        {
        "type":"Feature",
        "geometry":{
            "type":"Point",
            "coordinates":[127.948,37.3505]
        },
        "properties":{
        "capacity":1,
        "city":"\uc6d0\uc8fc"
            }
        }
    ]
}